{
   "type": "FeatureCollection",
   "features": [
     {
       "type": "Feature",
       "geometry": {
           "type": "Point",
           "coordinates": [ -76.617926, 39.293677 ]
       },
       "properties": {
           "title": "Po Tung Oriental Grocery",
           "phone": "410-962-1510",
           "address": "321 Park Ave, Baltimore, MD 21201",
           "website": "",
           "icon": "marker"
       }
     },
     {
       "type": "Feature",
       "geometry": {
           "type": "Point",
           "coordinates": [ -76.611602, 39.327741 ]
       },
       "properties": {
           "title": "Punjab Groceries & Halal Meat",
           "phone": "410-662-7844",
           "address": "345 E 33rd St, Baltimore, MD 21218",
           "website": "",

           "icon": "marker"
       }
     },
     {
       "type": "Feature",
       "geometry": {
           "type": "Point",
           "coordinates": [ -76.543952, 39.287818 ]
       },
       "properties": {
           "title": "Koko Market",
           "phone": "410-633-6030",
           "address": "Â 6020 Eastern Ave, Baltimore, MD 21224, United States",
           "website": "http://kokomarketmd.com/",
           "icon": "marker"
       }
     },
     {
       "type": "Feature",
       "geometry": {
           "type": "Point",
           "coordinates": [ -76.610502, 39.353737 ]
       },
       "properties": {
           "title": "Asia Food",
           "phone": "410-323-8738",
           "address": "5224 York Rd, Baltimore, MD 21212",
           "website": "",
           "icon": "marker"
       }
     },
     {
       "type": "Feature",
       "geometry": {
           "type": "Point",
           "coordinates": [ -76.483359,39.395461 ]
       },
       "properties": {
           "title": "VMart Filipino Grocery",
           "phone": "443-438-8548",
           "address": "8837 Belair Rd, Nottingham, MD 21236",
           "website": "https://www.mkt.com/vmart",
           "icon": "marker"
       }
     },
     {
       "type": "Feature",
       "geometry": {
           "type": "Point",
           "coordinates": [ -76.823628, 39.457335 ]
       },
       "properties": {
           "title": "VMart Filipino Grocery",
           "phone": "810-208-6278",
           "address": "112 Chartley Dr, Reisterstown, MD 21136",
           "website": "https://www.mkt.com/vmart",
           "icon": "marker"
       }
     },
     {
       "type": "Feature",
       "geometry": {
           "type": "Point",
           "coordinates": [ -76.680582, 39.350037 ]
       },
       "properties": {
           "title": "Island Food Market",
           "phone": "410-664-1818",
           "address": "5318 Park Heights Ave, Baltimore, MD 21215",
           "website": "http://www.islandfoodmarket.com/",
           "icon": "marker"
       }
     },
     {
       "type": "Feature",
       "geometry": {
           "type": "Point",
           "coordinates": [ -76.764044, 39.286777 ]
       },
       "properties": {
           "title": "Lotte Plaza Market",
           "phone": "410-455-0505",
           "address": "6600 Baltimore National Pike, Catonsville, MD 21228",
           "website": "http://www.lotteplaza.com/",
           "icon": "marker"
       }
     },
     {
       "type": "Feature",
       "geometry": {
           "type": "Point",
           "coordinates": [ -76.562197, 39.392881 ]
       },
       "properties": {
           "title": "Towson Oriental Food Market",
           "phone": "410-665-8432",
           "address": "8424 Willow Oak Rd, Parkville, MD 21234",
           "website": "",
           "icon": "marker"
       }
     },
     {
       "type": "Feature",
       "geometry": {
           "type": "Point",
           "coordinates": [ -76.644902, 39.251242 ]
       },
       "properties": {
           "title": "LA Mart",
           "phone": "410-646-1501",
           "address": "2159 W Patapsco Ave, Baltimore, MD",
           "website": "http://la-mart.net/stores.html",
           "icon": "marker"
       }
     }
   ]
}
